City_ID,City,Country,Lat,Lng,Max Temp,Humidity,Cloudiness,Wind Speed,Current Description
0,Thompson,CA,55.7435,-97.8558,57.36,54,75,11.5,broken clouds
1,Abu Dhabi,AE,24.4667,54.3667,100.51,63,19,8.05,few clouds
2,Puerto Ayora,EC,-0.7393,-90.3518,78.76,85,38,8.99,scattered clouds
3,Albany,US,42.6001,-73.9662,78.73,69,96,5.77,overcast clouds
4,Sept-Iles,CA,50.2001,-66.3821,67.24,81,75,10.0,broken clouds
5,Te Anau,NZ,-45.4167,167.7167,46.27,94,100,3.47,light rain
6,Hamilton,US,39.1834,-84.5333,90.36,70,40,1.01,scattered clouds
7,Mount Gambier,AU,-37.8333,140.7667,51.71,93,75,13.8,broken clouds
8,Hilo,US,19.7297,-155.09,76.8,89,90,3.44,moderate rain
9,Kabalo,CD,-6.05,26.9167,82.42,28,15,8.08,few clouds
10,Tocopilla,CL,-22.092,-70.1979,66.25,64,98,10.83,overcast clouds
11,Asfi,MA,32.2994,-9.2372,74.12,64,0,21.21,clear sky
12,Tigil,RU,57.8,158.6667,53.49,95,92,4.92,overcast clouds
13,Cayenne,GF,4.9333,-52.3333,84.09,78,90,2.3,overcast clouds
14,Rocha,UY,-34.4833,-54.3333,72.12,72,79,13.85,broken clouds
15,Valparaiso,CL,-33.0393,-71.6273,60.44,69,75,11.5,broken clouds
16,Awjilah,LY,29.1081,21.2869,92.37,20,0,10.83,clear sky
17,Severo-Kurilsk,RU,50.6789,156.125,53.44,98,83,3.22,broken clouds
18,Flinders,AU,-34.5833,150.8552,55.38,62,63,15.99,broken clouds
19,Dzhebariki-Khaya,RU,62.2167,135.8,56.86,93,97,4.63,overcast clouds
20,Longyearbyen,SJ,78.2186,15.6401,44.44,87,75,9.22,broken clouds
21,Punta Arenas,CL,-53.15,-70.9167,41.11,70,20,16.11,few clouds
22,Ohara,JP,35.25,140.3833,80.94,86,9,10.65,clear sky
23,Busselton,AU,-33.65,115.3333,58.08,66,37,18.66,scattered clouds
24,Mbini,GQ,1.574,9.6134,80.44,80,84,8.52,broken clouds
25,Sao Jose Da Coroa Grande,BR,-8.8978,-35.1478,77.92,76,20,13.06,few clouds
26,Lazaro Cardenas,MX,17.9583,-102.2,85.62,72,33,1.99,scattered clouds
27,Georgetown,MY,5.4112,100.3354,83.89,83,20,2.3,few clouds
28,Ushuaia,AR,-54.8,-68.3,35.26,93,75,27.63,light rain
29,Sitka,US,57.0531,-135.33,55.29,82,90,4.61,overcast clouds
30,Half Moon Bay,US,37.4636,-122.4286,79.05,73,20,1.01,few clouds
31,Sao Joao Da Barra,BR,-21.6403,-41.0511,77.09,59,0,15.05,clear sky
32,Adrar,MR,20.5022,-10.0711,111.42,7,32,8.08,scattered clouds
33,Dikson,RU,73.5069,80.5464,38.89,88,45,13.73,scattered clouds
34,Airai,TL,-8.9266,125.4092,55.47,55,44,3.15,scattered clouds
35,Coihaique,CL,-45.5752,-72.0662,44.55,49,40,4.61,scattered clouds
36,Whitehorse,CA,60.7161,-135.0538,57.09,58,40,2.3,scattered clouds
37,Koutiala,ML,12.3917,-5.4642,84.45,62,83,8.57,broken clouds
38,Cape Town,ZA,-33.9258,18.4232,62.28,48,0,2.3,clear sky
39,Bredasdorp,ZA,-34.5322,20.0403,53.28,87,100,5.75,overcast clouds
40,Vostok,RU,46.4856,135.8833,65.86,90,86,4.74,overcast clouds
41,Rikitea,PF,-23.1203,-134.9692,70.07,65,97,3.67,overcast clouds
42,Hithadhoo,MV,-0.6,73.0833,80.82,76,84,3.2,broken clouds
43,Bambous Virieux,MU,-20.3428,57.7575,71.85,60,40,11.5,scattered clouds
44,Vaini,TO,-21.2,-175.2,68.16,94,62,0.0,fog
45,Oranjemund,NA,-28.55,16.4333,66.18,30,100,5.35,overcast clouds
46,Asadabad,IR,34.7824,48.1185,90.39,13,26,9.78,scattered clouds
47,Faya,SA,18.3851,42.4509,66.31,65,91,3.31,overcast clouds
48,Kaa-Khem,RU,51.6833,94.7333,65.52,80,98,2.59,overcast clouds
49,Dunedin,NZ,-45.8742,170.5036,49.8,67,100,11.99,overcast clouds
50,Dalby,AU,-27.1833,151.2667,32.7,72,93,5.88,overcast clouds
51,Sinnamary,GF,5.3833,-52.95,79.29,82,100,2.89,overcast clouds
52,Honiara,SB,-9.4333,159.95,77.16,90,94,4.94,overcast clouds
53,Bluff,NZ,-46.6,168.3333,47.8,83,100,5.44,light rain
54,Dowa,MW,-13.654,33.9375,51.67,70,90,4.74,overcast clouds
55,Megara,GR,38.0,23.3456,85.89,28,0,9.22,clear sky
56,Mataura,NZ,-46.1927,168.8643,47.48,89,100,5.01,moderate rain
57,Qalyub,EG,30.1792,31.2056,88.59,58,8,19.17,clear sky
58,Esperance,AU,-33.8667,121.9,53.44,81,0,18.37,clear sky
59,Jamestown,US,42.097,-79.2353,82.09,61,75,8.05,broken clouds
60,Tiksi,RU,71.6872,128.8694,47.53,78,79,6.98,broken clouds
61,Mercedes,AR,-34.6515,-59.4307,58.17,73,89,9.82,overcast clouds
62,Butaritari,KI,3.0707,172.7902,81.72,77,12,10.54,light rain
63,Agbor,NG,6.2518,6.1934,77.61,80,80,6.49,broken clouds
64,Bolobo,CD,-2.1667,16.2333,84.99,31,15,1.25,few clouds
65,Lulea,SE,65.5842,22.1547,68.07,68,0,5.75,clear sky
66,Ramsar,IR,36.9226,50.6426,81.84,83,40,2.3,scattered clouds
67,Kapaa,US,22.0752,-159.319,79.12,84,75,1.99,light rain
68,Port Elizabeth,ZA,-33.918,25.5701,55.69,82,0,1.14,clear sky
69,Tasiilaq,GL,65.6145,-37.6368,46.56,87,67,2.66,broken clouds
70,Urumqi,CN,43.801,87.6005,83.35,23,0,4.47,clear sky
71,Saskylakh,RU,71.9167,114.0833,53.78,80,48,7.02,scattered clouds
72,Leningradskiy,RU,69.3833,178.4167,37.24,91,100,4.32,overcast clouds
73,Hobart,AU,-42.8794,147.3294,42.66,75,40,1.01,moderate rain
74,Schonebeck,DE,52.0167,11.75,84.07,38,94,6.55,overcast clouds
75,San Quintin,MX,30.4833,-115.95,68.47,83,100,6.13,overcast clouds
76,Bull Savanna,JM,17.8868,-77.5902,84.79,61,27,9.33,scattered clouds
77,Cherskiy,RU,68.75,161.3,40.08,78,16,7.72,few clouds
78,Kahului,US,20.8947,-156.47,79.84,89,40,18.41,scattered clouds
79,New Norfolk,AU,-42.7826,147.0587,42.3,72,74,3.0,moderate rain
80,Visby,SE,57.6409,18.296,75.85,53,0,10.36,clear sky
81,Saucillo,MX,28.0167,-105.2833,86.32,34,23,4.07,few clouds
82,Yulara,AU,-25.2406,130.9889,46.24,57,81,4.61,broken clouds
83,Laguna,US,38.421,-121.4238,98.44,49,1,1.99,clear sky
84,Tilichiki,RU,60.4667,166.1,52.27,98,100,4.74,overcast clouds
85,Tartagal,AR,-22.5164,-63.8013,84.9,33,100,5.37,overcast clouds
86,Port Alfred,ZA,-33.5906,26.891,61.45,51,25,11.18,scattered clouds
87,Seydi,TM,39.4816,62.9137,98.71,12,0,14.83,clear sky
88,Kaitangata,NZ,-46.2817,169.8464,48.92,61,100,4.9,overcast clouds
89,Saldanha,ZA,-33.0117,17.9442,60.85,56,100,10.98,overcast clouds
90,Amapa,BR,1.0,-52.0,86.77,59,39,4.0,scattered clouds
91,Padang,ID,-0.9492,100.3543,78.44,85,24,3.18,few clouds
92,Fairbanks,US,64.8378,-147.7164,59.34,77,90,0.0,overcast clouds
93,Ribeira Grande,PT,38.5167,-28.7,73.8,78,40,6.91,scattered clouds
94,Geraldton,AU,-28.7667,114.6,48.61,93,75,11.5,broken clouds
95,Kruisfontein,ZA,-34.0033,24.7314,53.64,48,51,1.14,broken clouds
96,Avarua,CK,-21.2078,-159.775,73.45,88,90,8.05,overcast clouds
97,Khatanga,RU,71.9667,102.5,54.21,74,53,7.49,broken clouds
98,Muyezerskiy,RU,63.9333,31.65,64.18,58,91,3.13,overcast clouds
99,Labuhan,ID,-6.8844,112.2051,74.57,80,11,5.1,few clouds
100,Bengbu,CN,32.9408,117.3608,76.77,88,100,10.65,overcast clouds
101,Goreloye,RU,52.937,41.5043,64.31,57,93,4.68,overcast clouds
102,Sobolevo,RU,54.4299,31.8996,70.36,58,30,4.21,scattered clouds
103,Walvis Bay,NA,-22.9575,14.5053,83.35,10,3,10.36,clear sky
104,Cockburn Town,TC,21.4612,-71.1419,85.96,70,40,6.91,scattered clouds
105,Arraial Do Cabo,BR,-22.9661,-42.0278,78.76,69,0,19.57,clear sky
106,Lavrentiya,RU,65.5833,-171.0,44.11,99,100,5.75,light rain
107,Dergachi,RU,51.2328,48.7659,67.53,46,6,6.42,clear sky
108,Vardo,NO,70.3705,31.1107,46.4,79,97,21.81,overcast clouds
109,Kihei,US,20.785,-156.4656,79.84,89,40,18.41,scattered clouds
110,Gornyy,RU,55.1153,83.9059,68.79,88,34,4.43,scattered clouds
111,Bell Ville,AR,-32.6259,-62.6887,61.81,50,0,11.07,clear sky
112,Katsuura,JP,35.1333,140.3,81.1,86,8,11.07,clear sky
113,Barrow,US,71.2906,-156.7887,42.82,93,90,11.5,overcast clouds
114,Atessa,IT,42.0693,14.4511,86.52,34,82,17.0,broken clouds
115,Muridke,PK,31.8025,74.2617,89.74,45,79,8.14,broken clouds
116,Port Macquarie,AU,-31.4333,152.9167,53.56,57,0,8.16,clear sky
117,Itaituba,BR,-4.2761,-55.9836,95.16,46,20,9.22,few clouds
118,Pangnirtung,CA,66.1451,-65.7125,55.4,82,90,4.61,light rain
119,East London,ZA,-33.0153,27.9116,59.94,72,0,6.91,clear sky
120,Atuona,PF,-9.8,-139.0333,77.2,72,45,23.53,scattered clouds
121,Pasni,PK,25.2631,63.471,81.99,85,36,14.09,scattered clouds
122,Oktyabrskiy,RU,54.4815,53.471,57.49,49,30,5.61,scattered clouds
123,Pevek,RU,69.7008,170.3133,34.74,91,100,9.82,overcast clouds
124,Cidreira,BR,-30.1811,-50.2056,74.25,52,7,5.03,clear sky
125,Ladario,BR,-19.0047,-57.6017,95.29,28,0,14.97,clear sky
126,Hofn,IS,64.2539,-15.2082,52.45,84,97,15.77,overcast clouds
127,Villa Maria,AR,-32.4075,-63.2402,62.83,46,0,11.86,clear sky
128,Sandakan,MY,5.8402,118.1179,74.88,83,40,14.97,scattered clouds
129,Tres Passos,BR,-27.4556,-53.9319,79.59,34,67,10.54,broken clouds
130,Urubicha,BO,-15.3833,-62.95,93.76,23,0,7.49,clear sky
131,Norman Wells,CA,65.282,-126.8329,62.64,48,20,8.05,few clouds
132,Castro,BR,-24.7911,-50.0119,70.18,40,2,9.26,clear sky
133,Codrington,AU,-38.2667,141.9667,49.44,93,97,14.72,light rain
134,Maple Creek,CA,49.9168,-109.4848,82.45,20,2,9.22,clear sky
135,Ponta Do Sol,PT,32.6667,-17.1,80.71,73,4,4.74,clear sky
136,Verkhoyansk,RU,67.5447,133.385,55.29,71,46,3.47,scattered clouds
137,Abha,SA,18.2164,42.5053,66.02,94,40,4.61,scattered clouds
138,Omboue,GA,-1.5746,9.2618,75.06,74,80,9.66,broken clouds
139,Chicama,PE,-7.8447,-79.1469,68.54,66,79,7.83,broken clouds
140,Cairns,AU,-16.9167,145.7667,67.95,73,90,9.22,overcast clouds
141,Smithers,CA,54.7804,-127.1743,53.92,87,75,2.3,light rain
142,Magadi,IN,12.9667,77.2333,71.94,84,79,14.03,broken clouds
143,Amnat Charoen,TH,15.9167,104.75,73.11,93,100,10.8,overcast clouds
144,Shellbrook,CA,53.2168,-106.4011,67.23,42,100,7.81,overcast clouds
145,Hamptons At Boca Raton,US,26.3826,-80.1859,93.02,68,40,1.99,scattered clouds
146,Benghazi,LY,32.1167,20.0667,82.47,56,0,17.65,clear sky
147,Fairhope,US,30.523,-87.9033,93.06,67,1,4.61,clear sky
148,Ambilobe,MG,-13.2,49.05,68.31,75,86,3.09,overcast clouds
149,Sundsvall,SE,62.3913,17.3063,74.97,54,75,12.66,broken clouds
150,Carnarvon,AU,-24.8667,113.6333,55.47,69,0,5.75,clear sky
151,Rio Grande,BR,-32.035,-52.0986,75.31,73,100,2.44,overcast clouds
152,Vilyuysk,RU,63.7553,121.6247,61.81,60,2,5.48,clear sky
153,Hasaki,JP,35.7333,140.8333,75.6,79,0,13.24,clear sky
154,Great Falls,US,47.5002,-111.3008,88.92,18,1,4.0,clear sky
155,Upernavik,GL,72.7868,-56.1549,41.36,82,50,10.25,scattered clouds
156,Faanui,PF,-16.4833,-151.75,77.76,66,3,13.47,clear sky
157,Zheleznogorsk,RU,52.331,35.3711,68.58,63,59,2.13,broken clouds
158,Gorontalo,ID,0.5412,123.0595,75.88,93,89,3.98,overcast clouds
159,Poya,NC,-21.35,165.15,65.52,88,15,0.65,few clouds
160,Alyangula,AU,-13.8483,136.4192,58.87,94,86,2.3,overcast clouds
161,Chuy,UY,-33.6971,-53.4616,66.04,81,73,11.3,broken clouds
162,Okha,RU,53.5739,142.9478,66.81,86,95,8.28,overcast clouds
163,La Asuncion,VE,11.0333,-63.8628,83.19,71,95,11.81,overcast clouds
164,Maridi,SS,4.9158,29.4742,66.54,99,99,3.56,light rain
165,Uyemskiy,RU,64.4743,40.8524,57.25,67,20,8.95,few clouds
166,Dingle,PH,10.9995,122.6711,76.84,91,71,7.56,light rain
167,Port Hardy,CA,50.6996,-127.4199,59.18,88,75,2.3,broken clouds
168,Usinsk,RU,65.9939,57.5281,47.89,93,100,13.8,overcast clouds
169,Chifeng,CN,42.2683,118.9636,73.67,84,99,5.19,light rain
170,Vila Velha,BR,-20.3297,-40.2925,76.96,56,40,9.22,scattered clouds
171,La Primavera,CO,5.4906,-70.4092,78.78,79,94,5.66,overcast clouds
172,Sioux Lookout,CA,50.1001,-91.917,79.18,47,40,14.97,smoke
173,Zhangzhou,CN,24.5133,117.6556,87.73,83,77,3.62,broken clouds
174,Saint-Philippe,RE,-21.3585,55.7679,69.35,76,37,11.48,scattered clouds
175,Trairi,BR,-3.2778,-39.2689,86.0,50,40,15.55,scattered clouds
176,Bamako,ML,12.65,-8.0,82.81,69,40,12.66,thunderstorm
177,Tura,IN,25.5198,90.2201,76.53,94,100,5.68,overcast clouds
178,Aklavik,CA,68.2191,-135.0107,55.4,76,75,17.27,broken clouds
179,Grindavik,IS,63.8424,-22.4338,52.27,87,75,28.77,light intensity drizzle
180,Kavieng,PG,-2.5744,150.7967,81.03,76,60,2.55,broken clouds
181,Lagoa,PT,39.05,-27.9833,69.37,82,100,12.77,overcast clouds
182,Belmonte,BR,-15.8631,-38.8828,75.7,62,28,11.23,scattered clouds
183,Dukat,RU,62.55,155.55,50.94,99,100,6.04,light rain
184,Albacete,ES,38.8333,-2.0,90.41,16,0,11.5,clear sky
185,Victoria,HK,22.2855,114.1577,86.38,83,6,1.01,clear sky
186,Karanja,IN,20.4833,77.4833,77.56,80,17,12.59,few clouds
187,Namibe,AO,-15.1961,12.1522,69.93,61,0,5.44,clear sky
188,Milcoiu,RO,45.05,24.4667,72.9,62,83,4.09,broken clouds
189,Boguchany,RU,58.3814,97.4531,67.89,65,53,4.29,broken clouds
190,Hami,CN,42.8,93.45,89.42,18,1,10.89,clear sky
191,Ancud,CL,-41.8697,-73.8203,44.13,63,18,9.4,few clouds
192,Zhezkazgan,KZ,47.8043,67.7144,84.85,36,1,16.42,clear sky
193,Mahebourg,MU,-20.4081,57.7,71.89,60,40,11.5,scattered clouds
194,Kemise,ET,10.7167,39.8667,66.22,91,100,2.13,moderate rain
195,Oxford,GB,51.7522,-1.256,71.91,76,75,5.75,broken clouds
196,Yellowknife,CA,62.456,-114.3525,61.29,51,20,4.61,few clouds
197,Pandaria,IN,22.2333,81.4167,78.19,84,28,6.98,scattered clouds
198,Kodiak,US,57.79,-152.4072,51.31,87,90,3.44,overcast clouds
199,Los Llanos De Aridane,ES,28.6585,-17.9182,73.13,80,20,16.11,few clouds
200,Sal Rei,CV,16.1833,-22.9167,80.8,54,20,13.8,few clouds
201,Mastic Beach,US,40.7668,-72.8521,77.99,88,90,1.01,overcast clouds
202,Conceicao Do Araguaia,BR,-8.2578,-49.2647,91.53,33,0,9.22,clear sky
203,Brightwater,NZ,-41.3833,173.1167,53.11,93,100,10.33,moderate rain
204,Saschiz,RO,46.1833,24.9667,80.91,64,13,5.28,few clouds
205,Maceio,BR,-9.6658,-35.7353,74.64,94,40,5.75,scattered clouds
206,Maunabo,PR,18.0072,-65.8993,87.04,90,95,9.04,overcast clouds
207,Rincon,US,32.296,-81.2354,89.22,63,40,3.44,scattered clouds
208,Lebu,CL,-37.6167,-73.65,50.76,91,96,6.4,overcast clouds
209,Constitucion,CL,-35.3333,-72.4167,53.35,89,52,12.35,broken clouds
210,Wanning,CN,18.8003,110.3967,80.15,89,83,10.74,broken clouds
211,Mar Del Plata,AR,-38.0023,-57.5575,57.22,59,90,8.99,overcast clouds
212,El Colomo,MX,19.05,-104.25,91.38,69,46,4.43,scattered clouds
213,Ilulissat,GL,69.2167,-51.1,55.42,41,40,10.36,scattered clouds
214,Bethel,US,41.3712,-73.414,77.68,86,90,6.91,overcast clouds
215,Sardulgarh,IN,29.7,75.25,96.15,45,88,6.06,overcast clouds
216,Kavaratti,IN,10.5669,72.642,80.91,78,100,23.6,overcast clouds
217,Jiexiu,CN,37.0244,111.9125,75.34,64,32,4.83,scattered clouds
218,Zhigansk,RU,66.7697,123.3711,60.66,57,60,8.48,broken clouds
219,Kununurra,AU,-15.7667,128.7333,60.78,82,26,0.0,scattered clouds
220,Licheng,CN,23.2955,113.8284,84.13,80,38,2.17,scattered clouds
221,Kyzyl-Suu,KG,42.3414,78.0056,69.53,25,0,6.8,clear sky
222,Lakes Entrance,AU,-37.8811,147.981,53.19,63,51,14.81,broken clouds
223,Ust-Nera,RU,64.5667,143.2,50.52,98,100,8.39,moderate rain
224,Talnakh,RU,69.4865,88.3972,55.81,93,100,5.91,overcast clouds
225,Yokadouma,CM,3.5167,15.05,74.08,91,94,2.08,overcast clouds
226,Kaeo,NZ,-35.1,173.7833,60.33,97,98,5.73,overcast clouds
227,Bagdarin,RU,54.4333,113.6,56.89,81,100,3.96,overcast clouds
228,Lata,PT,40.1629,-8.3327,76.05,74,88,9.13,overcast clouds
229,Zhicheng,CN,30.2956,111.5047,77.49,82,0,2.71,light rain
230,Saint-Francois,FR,46.4154,3.9054,77.18,66,0,5.75,clear sky
231,Sao Filipe,CV,14.8961,-24.4956,74.35,73,58,7.4,broken clouds
232,Farah,AF,32.5,62.5,94.1,11,0,1.88,clear sky
233,Tuktoyaktuk,CA,69.4541,-133.0374,53.6,100,90,19.57,light rain
234,Bubaque,GW,11.2833,-15.8333,79.03,79,99,5.91,overcast clouds
235,Aragarcas,BR,-15.8975,-52.2508,90.25,37,0,9.22,clear sky
236,Orda,RU,57.1951,56.9091,57.02,58,68,6.06,broken clouds
237,Royan,FR,45.6285,-1.0281,72.46,71,78,12.17,broken clouds
238,Seoul,KR,37.5683,126.9778,81.97,65,0,3.44,clear sky
239,Camacha,PT,33.0833,-16.3333,74.16,83,40,12.66,scattered clouds
240,Hermanus,ZA,-34.4187,19.2345,53.8,56,100,6.26,overcast clouds
241,Fort Nelson,CA,58.8053,-122.7002,67.59,45,40,11.5,scattered clouds
242,Alofi,NU,-19.0595,-169.9187,66.09,100,16,1.14,few clouds
243,Kapit,MY,2.0167,112.9333,74.82,99,100,0.87,overcast clouds
244,Caruray,PH,10.3094,119.0128,81.23,80,100,10.42,overcast clouds
245,Nanortalik,GL,60.1432,-45.2371,45.27,74,100,13.38,overcast clouds
246,Ayna,PE,-12.65,-73.9167,79.3,37,1,6.04,clear sky
247,Kyra,RU,49.5776,111.9753,52.16,87,26,5.19,scattered clouds
248,Leshukonskoye,RU,64.8989,45.7622,49.71,73,88,6.33,overcast clouds
249,Pisco,PE,-13.7,-76.2167,66.02,72,75,6.91,broken clouds
250,Novyy Urengoy,RU,66.0833,76.6333,59.09,82,100,7.25,overcast clouds
251,Luanda,AO,-8.8368,13.2343,72.14,79,3,12.84,clear sky
252,Ixtapa,MX,20.7,-105.2,88.83,62,1,3.44,clear sky
253,Qaanaaq,GL,77.484,-69.3632,39.7,71,87,5.55,overcast clouds
254,Pingliang,CN,35.5392,106.6861,72.59,67,100,3.58,overcast clouds
255,Zhigalovo,RU,54.8097,105.1578,62.94,64,100,2.84,overcast clouds
256,Mareeba,AU,-17.0,145.4333,63.32,77,49,2.39,scattered clouds
257,Havre-Saint-Pierre,CA,50.2334,-63.5986,73.76,60,1,8.05,clear sky
258,Salym,RU,60.0625,71.4789,55.85,94,100,8.39,overcast clouds
259,Isangel,VU,-19.55,169.2667,75.16,87,75,10.07,broken clouds
260,Port Lincoln,AU,-34.7333,135.8667,55.15,86,29,16.91,scattered clouds
261,Tual,ID,-5.6667,132.75,79.72,79,100,19.04,overcast clouds
262,Ouesso,CG,1.6136,16.0517,78.58,68,89,4.63,overcast clouds
263,Nikolskoye,RU,59.7035,30.7861,71.49,54,59,3.49,broken clouds
264,San Patricio,US,28.017,-97.5169,91.87,47,5,9.22,clear sky
265,Tomatlan,MX,19.9333,-105.25,88.79,62,40,3.27,scattered clouds
266,Meulaboh,ID,4.1363,96.1285,78.66,85,98,2.1,overcast clouds
267,Coquimbo,CL,-29.9533,-71.3436,60.53,63,0,13.8,clear sky
268,Goure,NE,13.9835,10.2704,89.02,40,77,10.33,broken clouds
269,Kholodnyy,RU,62.7167,147.95,54.54,98,100,3.47,moderate rain
270,Namatanai,PG,-3.6667,152.4333,78.64,84,52,3.18,broken clouds
271,Humberto De Campos,BR,-2.5983,-43.4611,90.9,42,55,3.44,broken clouds
272,Strezhevoy,RU,60.7333,77.5889,58.98,98,99,1.34,moderate rain
273,Noumea,NC,-22.2763,166.4572,70.0,99,80,6.8,broken clouds
274,Krasnoselkup,RU,65.7,82.4667,57.49,88,72,6.96,broken clouds
275,Belyy Yar,RU,53.6039,91.3903,71.49,83,0,4.47,clear sky
276,Salalah,OM,17.0151,54.0924,78.89,94,75,6.91,broken clouds
277,Kerema,PG,-7.9631,145.7785,76.82,91,91,9.15,overcast clouds
278,Kroya,ID,-7.6331,109.2461,73.38,85,1,5.17,clear sky
279,Narsaq,GL,60.9167,-46.05,57.42,46,100,5.1,overcast clouds
280,Lorengau,PG,-2.0226,147.2712,78.66,84,18,9.73,few clouds
281,Guangyuan,CN,32.442,105.823,74.3,91,43,2.01,scattered clouds
282,Brae,GB,60.3964,-1.353,60.71,72,71,4.34,broken clouds
283,Ribas Do Rio Pardo,BR,-20.4431,-53.7592,92.21,18,0,9.1,clear sky
284,Charters Towers,AU,-20.1,146.2667,54.64,40,3,7.36,clear sky
285,Raudeberg,NO,61.9875,5.1352,74.98,87,21,9.33,few clouds
286,Hibbing,US,47.4272,-92.9377,83.86,29,1,20.71,clear sky
287,Neya,RU,58.2972,43.8681,59.83,65,82,4.85,broken clouds
288,Dawei,MM,14.0833,98.2,77.02,91,100,9.46,light rain
289,Marzuq,YE,14.4,46.4667,74.21,75,26,9.6,scattered clouds
290,Guarumal,PA,8.35,-82.5333,78.89,83,75,4.61,broken clouds
291,Neuquen,AR,-38.9516,-68.0591,51.69,43,0,8.05,clear sky
292,Puri,IN,19.8,85.85,86.38,76,79,16.37,broken clouds
293,Broome,US,42.2506,-75.833,84.61,73,40,1.01,scattered clouds
294,Guerrero Negro,MX,27.9769,-114.0611,74.25,65,60,10.07,broken clouds
295,Digapahandi,IN,19.3667,84.5833,85.15,70,93,4.14,overcast clouds
296,Karatuzskoye,RU,53.6072,92.8667,65.21,95,98,1.7,light rain
297,Trinidad,BO,-14.8333,-64.9,93.43,28,2,8.9,clear sky
298,Lompoc,US,34.6391,-120.4579,76.14,85,90,0.0,overcast clouds
299,Makat,KZ,47.6469,53.3463,87.26,23,2,13.42,clear sky
300,Boueni,YT,-12.9025,45.0761,76.98,65,38,10.27,scattered clouds
301,Ramgarh,IN,23.6333,85.5167,82.45,85,95,7.2,overcast clouds
302,Luau,AO,-10.7073,22.2247,71.11,27,1,5.46,clear sky
303,Balaipungut,ID,1.05,101.2833,82.81,86,35,2.37,scattered clouds
304,Palmer,US,42.1584,-72.3287,72.09,82,90,5.01,overcast clouds
305,Coos Bay,US,43.3665,-124.2179,81.86,85,40,8.05,mist
306,Deputatskiy,RU,69.3,139.9,41.83,85,10,3.53,clear sky
307,Englewood,US,39.6478,-104.9878,89.4,36,75,1.99,broken clouds
308,Shimoda,JP,34.6667,138.95,77.11,87,3,7.87,clear sky
309,Portland,US,45.5234,-122.6762,78.08,63,1,1.01,clear sky
310,Nome,US,64.5011,-165.4064,48.27,87,90,9.22,overcast clouds
311,Cuenca,EC,-2.8833,-78.9833,60.93,59,90,4.61,light rain
312,Dalmeny,CA,52.3334,-106.7679,77.68,36,75,10.36,broken clouds
313,Celestun,MX,20.8667,-90.4,85.42,67,100,8.46,overcast clouds
314,Luderitz,NA,-26.6481,15.1594,67.23,26,70,5.01,broken clouds
315,Outlook,CA,51.5001,-107.0513,80.29,31,64,7.29,broken clouds
316,Ahipara,NZ,-35.1667,173.1667,57.24,93,82,8.88,broken clouds
317,Hirara,JP,24.8,125.2833,83.55,90,100,14.27,overcast clouds
318,Natal,BR,-5.795,-35.2094,86.22,54,40,19.57,scattered clouds
319,Umm Kaddadah,SD,13.6017,26.6876,92.14,36,63,11.9,broken clouds
320,Provideniya,RU,64.3833,-173.3,46.76,99,100,7.23,moderate rain
321,Sosnovoborsk,RU,56.1325,93.3589,65.75,80,0,2.48,clear sky
322,Mecca,SA,21.4267,39.8261,91.47,29,2,9.95,clear sky
323,Pemangkat,ID,1.1667,108.9667,80.71,83,3,7.81,clear sky
324,Nassau,US,40.7507,-73.5829,83.75,79,90,5.99,overcast clouds
325,Svetlaya,RU,46.5389,138.3297,69.08,86,99,6.35,light rain
326,Comarapa,BO,-17.9,-64.4833,70.2,44,0,7.83,clear sky
327,Port Moresby,PG,-9.4431,147.1797,71.02,100,75,6.91,broken clouds
328,Porto Novo,BJ,6.4965,2.6036,80.42,68,55,10.94,broken clouds
329,Ust-Uda,RU,54.1742,103.0304,66.79,55,91,2.35,overcast clouds
330,Torbay,CA,47.6666,-52.7314,60.76,91,90,9.22,overcast clouds
331,Udimskiy,RU,61.1417,45.9144,56.82,66,87,6.2,overcast clouds
332,Saint-Georges,GD,12.0564,-61.7485,85.68,74,20,11.5,few clouds
333,Erzin,TR,36.9559,36.2,86.52,81,0,5.59,clear sky
334,Amga,RU,60.8953,131.9608,56.57,95,41,2.84,scattered clouds
335,Ostrovnoy,RU,68.0531,39.5131,46.49,84,94,17.72,overcast clouds
336,Yatou,CN,37.15,122.3833,75.9,89,79,3.27,broken clouds
337,Klaksvik,FO,62.2266,-6.589,52.72,96,100,12.46,overcast clouds
338,Korla,CN,41.7597,86.1469,90.18,15,0,12.91,clear sky
339,Guarapari,BR,-20.6667,-40.4975,76.91,55,17,14.85,few clouds
340,Bassano,CA,50.7834,-112.4685,76.39,32,3,12.46,clear sky
341,Blackwater,AU,-23.5833,148.8833,51.76,44,30,6.8,scattered clouds
342,Ilhabela,BR,-23.7781,-45.3581,75.31,48,0,4.99,clear sky
343,Valkeala,FI,60.9401,26.7979,77.4,38,0,10.36,clear sky
344,Springville,US,40.1652,-111.6107,91.96,32,1,4.61,clear sky
345,Vokhma,RU,58.9303,46.7586,57.2,68,87,3.67,overcast clouds
346,Kodinsk,RU,58.6881,99.1844,67.98,59,73,2.84,broken clouds
347,Sabang,ID,5.8933,95.3214,83.34,77,98,10.58,overcast clouds
348,Miranda,CO,3.2499,-76.2281,78.66,79,100,3.38,overcast clouds
349,Gushikawa,JP,26.3544,127.8686,80.19,89,90,8.05,overcast clouds
350,Saint George,US,37.1041,-113.5841,90.43,47,11,1.99,few clouds
351,Gouyave,GD,12.1646,-61.7296,84.97,74,20,11.5,few clouds
352,Ilebo,CD,-4.3167,20.5833,83.88,27,97,3.11,overcast clouds
353,Ciudad Bolivar,VE,8.1222,-63.5497,83.98,69,90,8.41,overcast clouds
354,Qaqortoq,GL,60.7167,-46.0333,57.7,60,100,6.02,overcast clouds
355,Salta,AR,-24.7859,-65.4117,84.58,22,0,1.99,clear sky
356,Paamiut,GL,61.994,-49.6678,44.56,69,92,7.23,overcast clouds
357,Nago,JP,26.5881,127.9761,81.03,92,100,11.45,overcast clouds
358,Vredendal,ZA,-31.6683,18.5012,65.64,26,100,12.41,overcast clouds
359,Joaima,BR,-16.6542,-41.0306,83.01,27,12,7.56,few clouds
360,Maragogi,BR,-9.0122,-35.2225,77.2,79,34,13.22,scattered clouds
361,Santa Rosa De Viterbo,BR,-21.4728,-47.3631,81.07,18,0,6.11,clear sky
362,Akureyri,IS,65.6835,-18.0878,55.33,62,75,11.5,broken clouds
363,Abu Samrah,SY,35.3029,37.1841,91.63,27,0,14.12,clear sky
364,Mirnyy,RU,62.5353,113.9611,62.83,61,25,3.18,scattered clouds
365,Molina,CL,-35.1167,-71.2833,51.37,100,90,6.91,overcast clouds
366,Vestmanna,FO,62.1564,-7.1664,50.92,100,75,4.61,broken clouds
367,Cap Malheureux,MU,-19.9842,57.6142,72.09,60,0,8.99,clear sky
368,Haines Junction,CA,60.7522,-137.5108,53.55,66,97,3.44,overcast clouds
369,Kataysk,RU,56.289,62.5841,55.72,57,14,7.63,few clouds
370,Jalu,LY,29.0331,21.5482,92.64,20,0,10.89,clear sky
371,Santa Cruz De Tenerife,ES,28.4682,-16.2546,88.59,69,20,15.99,few clouds
372,Nenjiang,CN,49.1833,125.2167,67.66,97,100,5.79,overcast clouds
373,Yamasaki,JP,35.0,134.55,77.34,87,1,1.86,clear sky
374,Opuwo,NA,-18.0607,13.84,69.48,22,0,7.47,clear sky
375,Sur,OM,22.5667,59.5289,93.65,54,46,7.47,scattered clouds
376,Birin,NP,26.8865,88.0718,66.16,93,100,3.24,light rain
377,San Angelo,US,31.4638,-100.437,95.29,44,1,7.0,clear sky
378,Coahuayana,MX,18.7333,-103.6833,89.08,67,94,4.25,overcast clouds
379,Bacolod,PH,10.6667,122.95,78.89,89,39,10.2,scattered clouds
380,Kiruna,SE,67.8557,20.2251,59.92,77,0,5.75,clear sky
381,Tamandare,BR,-8.7597,-35.1047,78.8,72,10,11.5,clear sky
382,Nemuro,JP,43.3236,145.575,61.12,93,1,5.88,clear sky
383,Cabo San Lucas,MX,22.8909,-109.9124,94.51,51,1,6.91,clear sky
384,College,US,64.8569,-147.8028,60.46,77,75,4.61,broken clouds
385,Parabel,RU,58.6978,81.4825,67.35,71,10,7.61,clear sky
386,Srandakan,ID,-7.9386,110.2506,71.82,87,1,5.53,clear sky
387,North Bend,US,43.4065,-124.2243,67.86,85,40,8.05,mist
388,Buchanan,LR,5.8808,-10.0467,84.16,70,86,9.42,overcast clouds
389,Kendal,GB,54.3268,-2.7476,74.32,67,85,1.95,overcast clouds
390,Santa Vitoria Do Palmar,BR,-33.5189,-53.3681,66.74,78,73,11.16,broken clouds
391,Grants,US,35.1473,-107.8514,71.83,56,40,9.22,scattered clouds
392,Bisho,ZA,-32.8472,27.4422,54.23,37,7,4.68,clear sky
393,Varkkallai,IN,8.7341,76.7067,80.38,90,92,16.28,overcast clouds
394,Lubango,AO,-14.9172,13.4925,63.5,22,0,5.44,clear sky
395,Acajutla,SV,13.5928,-89.8275,91.74,57,95,7.34,overcast clouds
396,Pallasovka,RU,50.05,46.8833,73.18,39,44,10.89,scattered clouds
397,Chapais,CA,49.7834,-74.8492,65.98,61,52,12.24,broken clouds
398,Los Alamos,US,35.8881,-106.307,77.79,45,40,1.01,scattered clouds
399,Axim,GH,4.8699,-2.2405,78.58,68,46,11.32,scattered clouds
400,Iqaluit,CA,63.7506,-68.5145,46.13,93,90,4.0,mist
401,Providencia,MX,28.7167,-111.5833,94.28,51,51,8.99,broken clouds
402,Kaniama,CD,-7.5667,24.1833,75.2,30,44,4.25,scattered clouds
403,Mahajanga,MG,-15.7167,46.3167,75.22,69,40,2.3,scattered clouds
404,Webuye,KE,0.6075,34.7697,67.41,63,84,3.69,broken clouds
405,Eskil,TR,38.4017,33.4131,79.02,27,0,8.39,clear sky
406,Saint Anthony,US,45.0205,-93.218,90.79,31,1,1.99,clear sky
407,Vao,NC,-22.6667,167.4833,70.84,78,63,13.56,broken clouds
408,Khani,GE,41.9563,42.9566,67.57,96,58,1.36,broken clouds
409,Juneau,US,58.3019,-134.4197,57.2,94,75,0.0,fog
410,Illapel,CL,-31.6308,-71.1653,61.81,39,15,5.21,few clouds
411,Kokkola,FI,63.8385,23.1307,72.03,66,0,3.0,clear sky
412,Pamantingan,PH,6.7044,124.4589,71.55,83,69,3.4,broken clouds
413,Ugoofaaru,MV,5.6667,73.0,81.55,78,100,21.41,overcast clouds
414,Baykit,RU,61.67,96.37,67.39,65,61,3.02,broken clouds
415,Zhuhai,CN,22.2769,113.5678,86.11,84,20,8.05,few clouds
416,Morant Bay,JM,17.8815,-76.4093,87.42,66,38,7.74,scattered clouds
417,Astana,KZ,51.1801,71.446,76.95,53,20,8.95,few clouds
418,Yar-Sale,RU,66.8333,70.8333,50.54,70,51,20.54,broken clouds
419,Komsomolskiy,UZ,40.4272,71.7189,86.72,28,0,4.61,clear sky
420,Belle Fourche,US,44.6714,-103.8522,96.35,21,2,3.94,clear sky
421,Newcastle,AU,-32.9272,151.7765,53.78,58,4,8.01,clear sky
422,Ankang,CN,32.68,109.0172,71.65,84,0,1.54,light rain
423,Kuito,AO,-12.3833,16.9333,62.65,34,0,2.91,clear sky
424,Lufilufi,WS,-13.8745,-171.5986,74.98,72,41,14.76,scattered clouds
425,Manggar,ID,-2.8833,108.2667,81.59,72,0,14.58,clear sky
426,Hohhot,CN,40.8106,111.6522,70.09,100,40,2.24,mist
427,Jizan,SA,17.3333,42.6667,83.34,79,100,3.94,overcast clouds
428,Jumla,NP,29.2747,82.1838,65.89,98,100,1.68,overcast clouds
429,Kemijarvi,FI,66.7131,27.4306,57.9,91,89,3.94,overcast clouds
430,Quibor,VE,9.9287,-69.6201,81.57,41,100,2.66,overcast clouds
431,Henties Bay,NA,-22.116,14.2845,69.55,36,0,9.24,clear sky
432,Ainazi,LV,57.8636,24.3578,69.69,59,2,5.3,clear sky
433,Kualakapuas,ID,-3.0091,114.3876,71.76,89,1,4.07,clear sky
434,San Carlos De Bariloche,AR,-41.1456,-71.3082,42.55,75,75,14.97,broken clouds
435,Bandarbeyla,SO,9.4942,50.8122,81.27,60,85,28.21,overcast clouds
436,Alice Springs,AU,-23.7,133.8833,54.95,35,81,5.75,broken clouds
437,Charleville-Mezieres,FR,49.7667,4.7167,71.78,87,70,7.65,broken clouds
438,Azare,NG,11.6765,10.1948,82.09,68,95,7.9,light rain
439,Ouallam,NE,14.3188,2.0866,95.5,36,33,9.75,scattered clouds
440,Bucerias,MX,20.75,-105.3333,89.58,62,1,3.44,clear sky
441,Yumen,CN,40.2833,97.2,81.52,24,98,10.42,overcast clouds
442,Kabare,CD,-2.4683,28.8242,63.34,61,68,3.09,broken clouds
443,Tessalit,ML,20.1986,1.0114,103.64,18,65,5.86,broken clouds
444,Port Blair,IN,11.6667,92.75,82.33,85,100,17.05,overcast clouds
445,Chabahar,IR,25.2919,60.643,84.83,82,87,9.17,overcast clouds
446,Dubbo,AU,-32.25,148.6167,39.33,87,40,5.75,scattered clouds
447,Butembo,CD,0.15,29.2833,62.46,75,100,2.21,overcast clouds
448,Vikindu,TZ,-7.0067,39.2985,70.02,70,1,9.1,clear sky
449,Nuuk,GL,64.1835,-51.7216,52.41,62,40,4.61,scattered clouds
450,Chimore,BO,-16.9833,-65.1333,90.18,33,2,6.31,clear sky
451,Evensk,RU,61.95,159.2333,48.61,99,100,6.89,light rain
452,Ponta Delgada,PT,37.7333,-25.6667,74.12,78,40,11.5,scattered clouds
453,Taoudenni,ML,22.6783,-3.9836,115.48,5,16,11.5,few clouds
454,Sipoo,FI,60.3775,25.2691,78.06,42,0,10.36,clear sky
455,Palmas Bellas,PA,9.2319,-80.0867,85.01,82,100,5.5,overcast clouds
456,Andijon,UZ,40.7821,72.3442,87.15,12,0,2.37,clear sky
457,Berlevag,NO,70.8578,29.0864,46.4,82,100,19.44,overcast clouds
458,Teknaf,BD,20.8624,92.3058,80.85,90,100,5.26,overcast clouds
459,Dwarka,IN,22.2394,68.9678,82.92,85,100,19.13,light rain
460,Mus,TR,39.0,41.75,73.9,20,0,6.44,clear sky
461,Laibin,CN,23.7,109.2667,82.65,73,5,2.84,clear sky
462,Aleppo,SY,36.25,37.5,90.12,29,0,14.61,clear sky
463,Saurimo,AO,-9.6608,20.3916,72.77,31,2,5.06,clear sky
464,Olinda,BR,-8.0089,-34.8553,76.73,69,75,13.8,broken clouds
465,Diapaga,BF,12.0708,1.7889,87.06,52,90,9.4,overcast clouds
466,Inzer,RU,54.2167,57.5556,52.72,75,4,1.83,clear sky
467,Narrabri,AU,-30.3167,149.7833,32.09,86,0,2.3,clear sky
468,Dalvik,IS,65.9702,-18.5286,55.33,67,100,10.45,overcast clouds
469,Shache,CN,38.4167,77.2406,90.12,20,31,6.53,scattered clouds
470,Umm Lajj,SA,25.0213,37.2685,89.19,47,4,7.11,clear sky
471,Porto Murtinho,BR,-21.6989,-57.8825,96.78,20,0,13.82,clear sky
472,Aksarka,RU,66.5606,67.7975,49.06,72,22,14.92,few clouds
473,Fortuna,US,40.5982,-124.1573,58.66,96,90,0.0,overcast clouds
474,Eydhafushi,MV,5.1033,73.0708,81.88,76,100,17.34,overcast clouds
475,Vila Franca Do Campo,PT,37.7167,-25.4333,73.81,69,48,8.16,scattered clouds
476,Segesd,HU,46.3414,17.3513,85.48,33,57,8.75,broken clouds
477,Healdsburg,US,38.6105,-122.8692,95.31,72,1,3.44,clear sky
478,Richards Bay,ZA,-28.783,32.0377,60.21,73,3,9.26,clear sky
479,Verin,ES,41.9415,-7.4381,76.57,61,36,10.89,scattered clouds
480,Longyan,CN,25.1072,117.0225,74.41,96,78,3.51,broken clouds
481,Knysna,ZA,-34.0363,23.0471,57.58,47,74,5.53,broken clouds
482,Singkang,MY,2.1006,102.7994,80.49,87,25,3.58,scattered clouds
483,Atar,MR,20.5169,-13.0499,112.57,11,26,7.9,scattered clouds
484,Pochutla,MX,15.7432,-96.4661,91.22,53,100,4.47,overcast clouds
485,Aykhal,RU,66.0,111.5,71.49,56,81,8.39,broken clouds
486,Gulbarga,IN,17.3333,76.8333,77.47,79,63,16.8,broken clouds
487,Svetlogorsk,BY,52.6333,29.7333,71.76,65,63,2.98,broken clouds
488,Verkhnevilyuysk,RU,63.4453,120.3167,61.93,58,1,5.21,clear sky
489,Lafiagi,NG,8.8667,5.4167,82.08,67,99,5.93,overcast clouds
490,Srivardhan,IN,18.0333,73.0167,80.28,89,100,16.33,light rain
491,Leh,IN,34.1667,77.5833,75.79,35,92,7.83,overcast clouds
492,Mwinilunga,ZM,-11.7358,24.4293,61.07,38,0,5.55,clear sky
493,Kiunga,PG,-6.1219,141.2906,71.69,100,100,2.73,heavy intensity rain
494,Yerbogachen,RU,61.2767,108.0108,63.27,65,11,1.54,few clouds
495,Bima,ID,-8.4667,118.7167,69.46,93,57,3.65,broken clouds
496,Zomin,UZ,39.9606,68.3958,88.16,16,0,5.79,clear sky
497,Jaciara,BR,-15.9653,-54.9683,93.63,19,1,7.16,clear sky
498,Puka,EE,58.0559,26.2436,74.44,57,7,3.44,clear sky
499,Laela,TZ,-8.5667,32.05,53.1,68,57,8.59,broken clouds
500,Puerto Escondido,MX,15.85,-97.0667,88.63,66,40,6.91,scattered clouds
501,Nortelandia,BR,-14.4547,-56.8028,96.44,19,0,6.69,clear sky
502,Esmeraldas,BR,-19.7625,-44.3139,77.11,23,0,7.23,clear sky
503,Luoyang,CN,34.6836,112.4536,78.26,80,1,1.1,light rain
504,Vanimo,PG,-2.6741,141.3028,75.09,81,100,3.11,overcast clouds
505,Dongkan,CN,33.9997,119.8308,79.52,83,100,16.24,light rain
506,Novoorsk,RU,51.381,58.9813,68.65,53,55,8.39,broken clouds
507,Beloha,MG,-25.1667,45.05,61.48,62,10,10.78,clear sky
508,Miri,MY,4.4148,114.0089,84.34,89,40,4.61,light rain
509,Show Low,US,34.2542,-110.0298,72.28,66,75,11.5,broken clouds
510,Gat,IL,31.61,34.7642,83.8,71,0,12.37,clear sky
511,Bintulu,MY,3.1667,113.0333,81.01,94,40,2.3,scattered clouds
512,Santa Rosalia,MX,27.3167,-112.2833,86.2,49,23,6.22,few clouds
513,Am Timan,TD,11.0297,20.2827,77.2,76,95,2.73,overcast clouds
514,Iwakuni,JP,34.15,132.1833,77.09,78,40,5.75,scattered clouds
515,Gitarama,RW,-2.0744,29.7567,67.46,46,40,3.31,scattered clouds
516,La Orilla,MX,17.9833,-102.2333,85.75,71,29,2.55,scattered clouds
517,Bonthe,SL,7.5264,-12.505,79.14,76,89,10.22,light rain
518,Zaysan,KZ,47.4667,84.8667,74.8,36,6,8.28,clear sky
519,Bathsheba,BB,13.2167,-59.5167,88.41,74,75,18.41,broken clouds
520,North Platte,US,41.1239,-100.7654,84.33,62,1,3.0,clear sky
521,Amazar,RU,53.858,120.875,60.75,85,98,4.29,overcast clouds
522,Markova,UA,48.6758,24.4138,72.99,79,63,3.98,broken clouds
523,Mattru,SL,7.6244,-11.8332,77.56,86,97,4.59,light rain
524,Potchefstroom,ZA,-26.7167,27.1,45.39,31,0,3.6,clear sky
525,Rafraf,TN,37.1904,10.1837,93.51,46,8,23.09,clear sky
526,Kachiry,KZ,53.0675,76.1036,69.55,77,71,8.1,light rain
527,Huilong,CN,31.8111,121.655,78.04,94,100,40.51,moderate rain
528,Barcelos,PT,41.5388,-8.6151,78.28,68,82,7.2,broken clouds
529,Rawah,IQ,34.4816,41.9093,101.35,17,0,11.07,clear sky
530,Punto Fijo,VE,11.6956,-70.1996,83.35,69,100,1.23,overcast clouds
531,Sarankhola,BD,22.3082,89.7897,81.72,92,99,6.04,overcast clouds
532,Santa Maria,BR,-29.6842,-53.8069,83.5,34,40,20.71,scattered clouds
533,Montrose,US,38.4166,-108.2673,71.37,34,57,2.91,broken clouds
534,Bilma,NE,18.6853,12.9164,101.03,25,58,4.03,broken clouds
535,Tonj,SS,7.2737,28.6822,71.56,96,95,2.89,moderate rain
536,Dudinka,RU,69.4058,86.1778,54.37,87,88,3.51,overcast clouds
537,General Roca,AR,-39.0333,-67.5833,52.2,42,100,11.59,overcast clouds
538,Pingzhuang,CN,42.0372,119.2889,74.52,79,100,13.49,moderate rain
539,Talara,PE,-4.5772,-81.2719,75.96,73,40,13.8,scattered clouds
540,Tuatapere,NZ,-46.1333,167.6833,47.82,89,100,4.92,overcast clouds
541,Oistins,BB,13.0667,-59.5333,87.89,74,75,18.41,broken clouds
542,San Pedro,PH,14.35,121.0167,81.63,87,75,6.91,light rain
543,Anamur,TR,36.0751,32.8369,86.02,70,1,10.16,clear sky
544,Qeshm,IR,26.9581,56.2719,94.87,66,8,7.47,clear sky
545,Chute-Aux-Outardes,CA,49.1168,-68.399,68.31,77,75,9.22,broken clouds
546,Souillac,MU,-20.5167,57.5167,71.98,60,40,11.5,scattered clouds
547,Caernarfon,GB,53.1413,-4.2702,74.52,58,58,12.66,broken clouds
548,San Cristobal,VE,7.7669,-72.225,75.38,56,100,5.32,overcast clouds
549,Wewak,PG,-3.5534,143.6268,73.63,88,81,3.83,broken clouds
550,Skibbereen,IE,51.55,-9.2667,71.4,73,28,2.66,scattered clouds
551,Kang,BW,-23.6752,22.7876,51.78,35,1,7.58,clear sky
552,Mandan,US,46.8267,-100.8896,88.02,31,1,1.01,clear sky
553,Laizhou,CN,37.1717,119.9214,75.27,88,98,6.02,overcast clouds
554,Baghdad,IQ,33.3406,44.4009,102.11,21,0,5.75,clear sky
555,Rio Gallegos,AR,-51.6226,-69.2181,39.25,70,40,19.57,scattered clouds
556,Hlobyne,UA,49.3878,33.2596,74.77,56,53,5.7,broken clouds
557,Neka,IR,36.6508,53.299,83.71,79,75,4.61,broken clouds
558,Tigzirt,DZ,36.8886,4.1198,81.27,59,99,4.68,overcast clouds
559,Forio,IT,40.7342,13.8646,86.77,63,82,4.0,broken clouds
560,Oksfjord,NO,70.2396,22.3479,51.87,99,100,4.07,overcast clouds
561,Bandrele,YT,-12.9067,45.1914,76.75,65,0,14.97,clear sky
562,Joshimath,IN,30.5667,79.5667,75.74,95,100,0.63,heavy intensity rain
563,La Ronge,CA,55.1001,-105.2842,64.65,59,75,8.05,broken clouds
564,Stornoway,GB,58.2093,-6.3865,63.93,82,62,11.5,broken clouds
565,Santa Fe,AR,-31.6333,-60.7,62.02,67,77,5.99,broken clouds
566,Rawson,AR,-43.3002,-65.1023,52.29,32,18,20.65,few clouds
567,Kloulklubed,PW,7.0419,134.2556,83.16,76,100,13.0,overcast clouds
568,Tonkino,RU,57.3726,46.4629,60.08,54,52,3.51,broken clouds
569,Plettenberg Bay,ZA,-34.0527,23.3716,59.47,50,72,3.96,broken clouds
570,Vysokogornyy,RU,50.1167,139.15,70.48,86,100,2.84,overcast clouds
571,Berja,ES,36.8469,-2.9497,92.95,50,10,4.09,clear sky
572,Plouzane,FR,48.3833,-4.6167,69.89,73,75,11.5,broken clouds
573,Tautira,PF,-17.7333,-149.15,71.62,67,2,9.98,clear sky
574,Daye,CN,30.0833,114.95,77.88,85,0,4.38,clear sky
575,Jibuti,DJ,11.5,42.5,85.42,51,66,4.72,broken clouds
576,Darnah,LY,32.767,22.6367,79.21,68,0,26.6,clear sky
577,Risor,NO,58.7206,9.2342,75.29,60,100,0.85,overcast clouds
578,Vitim,RU,59.4511,112.5578,60.85,65,61,3.87,broken clouds
579,Pangody,RU,65.85,74.4859,56.77,64,100,14.2,overcast clouds
580,Isla Vista,US,34.4133,-119.861,89.11,75,90,4.61,overcast clouds
581,Tashla,RU,51.7716,52.7427,66.47,36,25,9.64,scattered clouds
582,Ketchikan,US,55.3422,-131.6461,57.67,88,90,0.0,overcast clouds
583,Andenes,NO,69.3143,16.1194,59.47,94,75,13.8,broken clouds
584,Novoagansk,RU,61.9449,76.6625,60.06,97,100,11.36,light rain
585,Panjab,AF,34.388,67.0233,65.53,28,9,7.76,clear sky
586,Banda Aceh,ID,5.5577,95.3222,80.55,82,91,5.75,overcast clouds
587,Panguna,PG,-6.3164,155.4848,67.73,92,94,1.52,overcast clouds
588,Kologriv,RU,58.8275,44.3178,58.17,67,74,3.58,broken clouds
589,Nikel,RU,69.4128,30.222,50.18,67,98,14.18,overcast clouds
590,Surab,PK,28.4914,66.2585,86.74,26,74,4.94,broken clouds
591,Pichayevo,RU,53.2363,42.2032,62.82,59,68,5.37,broken clouds
592,Alzamay,RU,55.5562,98.6644,62.19,71,60,2.44,broken clouds
593,Biak,ID,-0.9131,122.8766,75.2,82,74,7.45,broken clouds
594,Kidal,ML,18.4411,1.4078,91.35,40,66,21.45,broken clouds
595,Waddan,LY,29.1614,16.139,93.31,20,0,13.87,clear sky
596,Ulkan,RU,57.243,107.3223,63.28,69,48,2.51,scattered clouds
597,Hambantota,LK,6.1241,81.1185,80.15,79,79,17.22,broken clouds
598,Pyshma,RU,56.9523,63.2513,54.82,60,4,6.69,clear sky
599,Chokurdakh,RU,70.6333,147.9167,33.48,85,1,9.48,clear sky
600,Mujiayingzi,CN,42.1167,118.7833,72.05,85,99,6.33,overcast clouds
601,Mongu,ZM,-15.2484,23.1274,64.6,31,0,7.4,clear sky
602,Khakhea,BW,-24.6895,23.494,52.45,32,54,8.75,broken clouds
603,Kota Tinggi,MY,1.7381,103.8999,84.29,88,32,2.39,scattered clouds
604,Asprovalta,GR,40.7167,23.7,85.42,50,0,1.99,clear sky
605,Nichinan,JP,31.6,131.3667,79.75,90,100,7.96,light rain
606,Kavarna,BG,43.4333,28.3333,79.02,67,0,9.13,clear sky
607,Lasa,IT,46.6166,10.7002,70.68,74,73,4.76,light rain
608,Jacksonville,US,30.3322,-81.6556,91.62,69,75,3.0,haze
609,Buraydah,SA,26.326,43.975,106.25,11,75,11.25,broken clouds
610,Les Cayes,HT,18.2,-73.75,85.77,67,91,10.09,overcast clouds
611,Kalat,PK,29.0225,66.5916,84.15,20,77,9.08,broken clouds
612,Kampot,KH,10.6167,104.1833,78.85,87,84,7.7,broken clouds
613,Sandnessjoen,NO,66.0217,12.6316,70.32,100,90,3.44,fog
614,Sakakah,SA,29.9697,40.2064,105.37,15,1,9.86,clear sky
615,Cairo,EG,30.0626,31.2497,88.56,58,40,11.5,scattered clouds
616,Avera,US,33.194,-82.5271,89.91,52,94,3.4,overcast clouds
617,Kayerkan,RU,69.3497,87.7602,52.99,95,100,4.41,overcast clouds
618,Kismayo,SO,-0.3582,42.5454,75.58,76,19,21.85,few clouds
619,Mayor Pablo Lagerenza,PY,-19.9309,-60.7718,97.2,19,0,18.28,clear sky
620,Campoverde,PE,-8.4753,-74.8058,89.29,34,43,0.92,scattered clouds
621,Samarai,PG,-10.6167,150.6667,78.8,80,100,18.84,light rain
622,Hailar,CN,49.2,119.7,57.97,87,49,2.98,scattered clouds
623,Mount Isa,AU,-20.7333,139.5,46.17,46,4,0.0,clear sky
624,Waipawa,NZ,-41.4122,175.5153,53.92,79,100,11.7,overcast clouds
625,Kisangani,CD,0.5167,25.2,81.66,55,100,2.84,overcast clouds
626,Locri,IT,38.2414,16.2623,85.75,60,1,4.47,clear sky
627,Kautokeino,NO,69.0125,23.0412,57.31,73,97,1.61,overcast clouds
628,Artvin,TR,41.1667,41.8333,67.28,95,31,3.6,scattered clouds
629,Clinton,US,42.587,-82.9199,89.94,51,40,1.99,scattered clouds
630,Dapaong,TG,10.8639,0.205,83.68,60,80,7.72,light rain
631,Praya,CV,14.9215,-23.5087,81.14,57,20,16.11,few clouds
632,Inhambane,MZ,-23.865,35.3833,66.18,72,75,4.61,light rain
633,Macia,MZ,-25.0269,33.0989,57.85,84,16,4.54,few clouds
634,Golfito,CR,8.639,-83.166,77.77,89,87,3.11,overcast clouds
635,La Paz,BO,-16.5,-68.15,54.45,35,1,2.55,clear sky
636,Saint-Louis,SN,16.3333,-15.0,101.84,32,65,10.49,broken clouds
637,Weligama,LK,5.9667,80.4167,78.04,88,70,10.83,broken clouds
638,Savelugu,GH,9.6244,-0.8253,87.24,48,63,8.01,broken clouds
639,Kamenka,RU,51.3223,42.7678,67.89,49,97,5.95,overcast clouds
640,Mahibadhoo,MV,3.7833,72.9667,82.09,78,100,19.28,overcast clouds
641,Praia,CV,14.9215,-23.5087,81.14,57,20,16.11,few clouds
642,Dauriya,RU,49.9333,116.8667,55.31,90,12,4.9,few clouds
643,Bjornevatn,NO,69.6672,29.9847,50.34,66,20,12.66,few clouds
644,Karratha,AU,-20.7377,116.8463,70.54,46,19,4.47,light rain
645,Kodinar,IN,20.7903,70.7031,79.48,86,100,15.3,heavy intensity rain
646,Kungurtug,RU,50.5994,97.5228,55.51,94,100,1.1,overcast clouds
647,Coolum Beach,AU,-26.5333,153.1,56.1,63,88,9.46,overcast clouds
648,Lircay,PE,-12.9896,-74.7205,61.34,33,1,7.31,clear sky
649,Antofagasta,CL,-23.65,-70.4,66.22,60,72,9.62,broken clouds
650,Tiznit,MA,29.5833,-9.5,88.57,31,0,8.84,clear sky
651,Khorinsk,RU,52.1657,109.7726,59.81,71,92,4.85,overcast clouds
652,Baruun-Urt,MN,46.6806,113.2792,64.51,59,100,13.44,overcast clouds
653,Khotyn,UA,48.4833,26.5,77.22,64,21,6.71,few clouds
654,Inirida,CO,3.8653,-67.9239,79.18,80,100,2.59,overcast clouds
655,Milkovo,RU,54.7167,158.6167,57.31,89,82,3.89,broken clouds
656,Orlik,RU,52.5178,99.825,54.19,78,55,2.04,broken clouds
657,Vestmannaeyjar,IS,63.4427,-20.2734,54.59,82,75,27.63,broken clouds
658,Levelland,US,33.5873,-102.378,90.19,36,29,4.41,scattered clouds
659,Mana,GF,5.6592,-53.7767,75.69,90,100,2.66,overcast clouds
660,Bontang,ID,0.1333,117.5,78.17,87,32,8.81,scattered clouds
661,Shimoni,KE,-4.6476,39.3817,75.58,69,0,20.49,clear sky
662,Razole,IN,16.4833,81.8333,82.58,80,79,5.7,broken clouds
663,Lodja,CD,-3.4833,23.4333,83.37,27,64,2.86,broken clouds
664,Palaia Fokaia,GR,37.72,23.9463,85.75,40,0,17.65,clear sky
665,La Rioja,ES,42.25,-2.5,73.04,58,97,5.32,overcast clouds
666,Jasper,US,37.2001,-94.3502,91.83,70,20,1.01,few clouds
667,Gamba,GA,-2.65,10.0,73.45,80,84,9.01,broken clouds
668,Stokmarknes,NO,68.5646,14.9108,59.5,92,40,10.36,scattered clouds
669,Ucluelet,CA,48.9329,-125.5528,74.08,84,0,1.99,clear sky
670,Ceres,US,37.5949,-120.9577,100.31,31,1,6.91,clear sky
671,Zlobin,HR,45.2924,14.6541,77.38,56,20,6.91,few clouds
672,Singapore,SG,1.2897,103.8501,84.24,79,75,8.05,broken clouds
673,Nova Odesa,UA,47.3078,31.7851,79.2,38,5,5.1,clear sky
674,Stromness,GB,58.965,-3.296,62.56,88,16,12.48,few clouds
675,Naushki,RU,50.3828,106.1056,60.89,70,0,5.68,clear sky
676,Carauari,BR,-4.8828,-66.8958,94.84,37,62,3.33,broken clouds
677,Nevsehir,TR,38.9167,34.6667,79.81,24,20,4.61,few clouds
678,Manzanillo,CU,20.3433,-77.1167,88.59,58,35,6.76,scattered clouds
679,Virginia Beach,US,36.8529,-75.978,89.02,59,40,13.8,scattered clouds
680,Anadyr,RU,64.75,177.4833,52.3,93,90,4.0,mist
681,Madison,US,34.7334,-86.5667,90.77,72,1,0.0,clear sky
682,Sibolga,ID,1.7427,98.7792,77.72,82,93,2.91,overcast clouds
683,Chake Chake,TZ,-5.2459,39.7666,74.73,66,0,17.87,clear sky
684,Nagua,DO,19.3832,-69.8474,92.44,84,40,11.5,scattered clouds
685,Victor Harbor,AU,-35.5667,138.6167,56.46,87,47,1.99,light rain
686,Steinbach,DE,50.1667,8.5667,80.1,48,40,8.05,light rain
687,Chitral,PK,35.8462,71.7858,85.75,58,0,3.47,clear sky
688,Buala,SB,-8.145,159.5921,79.34,84,71,7.78,light rain
689,Aktau,KZ,43.65,51.2,86.58,38,1,19.64,clear sky
690,Baculin,PH,7.4525,126.5842,80.6,77,99,8.14,overcast clouds
691,Makakilo City,US,21.3469,-158.0858,79.12,75,20,6.91,light rain
692,Little Chute,US,44.28,-88.3184,86.31,56,1,1.99,clear sky
693,Ambon,ID,-3.6954,128.1814,77.14,94,40,6.91,scattered clouds
694,Pozo Colorado,PY,-23.4923,-58.7972,94.5,23,52,14.47,broken clouds
695,Port Hedland,AU,-20.3167,118.5667,60.85,77,9,5.75,clear sky
